{
   "type": "FeatureCollection",
   "features": [
  {
    "type": "Feature",
    "geometry": {
       "type": "Point",
       "coordinates":  [ -69.32452,45.553649 ]
    },
    "properties": {
    "Name":"Appalachian Mountain Club's Maine Woods",
    "Year":2021,
    "Type":"Park",
    "coordinates":"-69.32452, 45.553649"
    }
  },
  {
    "type": "Feature",
    "geometry": {
       "type": "Point",
       "coordinates":  [ -112.228515,41.034015 ]
    },
    "properties": {
    "Name":"Antelope Island State Park",
    "Year":2017,
    "Type":"Park",
    "coordinates":"-112.228515, 41.034015"
    }
  },
  {
    "type": "Feature",
    "geometry": {
       "type": "Point",
       "coordinates":  [ -116.301898,33.095535 ]
    },
    "properties": {
    "Name":"Anza-Borrego Desert State Park",
    "Year":2018,
    "Type":"Park",
    "coordinates":"-116.301898, 33.095535"
    }
  },
  {
    "type": "Feature",
    "geometry": {
       "type": "Point",
       "coordinates":  [ -109.62,38.6166 ]
    },
    "properties": {
    "Name":"Arches National Park ",
    "Year":2019,
    "Type":"Park",
    "coordinates":"-109.62, 38.6166"
    }
  },
  {
    "type": "Feature",
    "geometry": {
       "type": "Point",
       "coordinates":  [ -86.97778,41.68768 ]
    },
    "properties": {
    "Name":"Beverly Shores, IN",
    "Year":2014,
    "Type":"Community",
    "coordinates":"-86.97778, 41.68768"
    }
  },
  {
    "type": "Feature",
    "geometry": {
       "type": "Point",
       "coordinates":  [ -103.250452,29.250201 ]
    },
    "properties": {
    "Name":"Big Bend National Park",
    "Year":2012,
    "Type":"Park",
    "coordinates":"-103.250452, 29.250201"
    }
  },
  {
    "type": "Feature",
    "geometry": {
       "type": "Point",
       "coordinates":  [ -103.738403,29.266035 ]
    },
    "properties": {
    "Name":"Big Bend Ranch State Park",
    "Year":2017,
    "Type":"Park",
    "coordinates":"-103.738403, 29.266035"
    }
  },
  {
    "type": "Feature",
    "geometry": {
       "type": "Point",
       "coordinates":  [ -81.074295,25.97533 ]
    },
    "properties": {
    "Name":"Big Cypress National Preserve",
    "Year":2016,
    "Type":"Park",
    "coordinates":"-81.074295, 25.97533"
    }
  },
  {
    "type": "Feature",
    "geometry": {
       "type": "Point",
       "coordinates":  [ -107.743697,38.579807 ]
    },
    "properties": {
    "Name":"Black Canyon of the Gunnison National Park",
    "Year":2015,
    "Type":"Park",
    "coordinates":"-107.743697, 38.579807"
    }
  },
  {
    "type": "Feature",
    "geometry": {
       "type": "Point",
       "coordinates":  [ -102.897726,29.563391 ]
    },
    "properties": {
    "Name":"Black Gap Wildlife Management Area",
    "Year":2021,
    "Type":"Sanctuary",
    "coordinates":"-102.897726, 29.563391"
    }
  },
  {
    "type": "Feature",
    "geometry": {
       "type": "Point",
       "coordinates":  [ -98.422264,30.097654 ]
    },
    "properties": {
    "Name":"Blanco, TX",
    "Year":2022,
    "Type":"Community",
    "coordinates":"-98.422264, 30.097654"
    }
  },
  {
    "type": "Feature",
    "geometry": {
       "type": "Point",
       "coordinates":  [ -113.41417,53.83551 ]
    },
    "properties": {
    "Name":"Bon Accord, AB",
    "Year":2015,
    "Type":"Community",
    "coordinates":"-113.41417, 53.83551"
    }
  },
  {
    "type": "Feature",
    "geometry": {
       "type": "Point",
       "coordinates":  [ -116.37194,33.2442 ]
    },
    "properties": {
    "Name":"Borrego Springs, CA",
    "Year":2009,
    "Type":"Community",
    "coordinates":"-116.37194, 33.2442"
    }
  },
  {
    "type": "Feature",
    "geometry": {
       "type": "Point",
       "coordinates":  [ -91.97483,48.155527 ]
    },
    "properties": {
    "Name":"Boundary Waters Canoe Area Wilderness",
    "Year":2020,
    "Type":"Sanctuary",
    "coordinates":"-91.97483, 48.155527"
    }
  },
  {
    "type": "Feature",
    "geometry": {
       "type": "Point",
       "coordinates":  [ -112.185594,37.570795 ]
    },
    "properties": {
    "Name":"Bryce Canyon National Park",
    "Year":2019,
    "Type":"Park",
    "coordinates":"-112.185594, 37.570795"
    }
  },
  {
    "type": "Feature",
    "geometry": {
       "type": "Point",
       "coordinates":  [ -93.309841,36.040131 ]
    },
    "properties": {
    "Name":"Buffalo National River",
    "Year":2019,
    "Type":"Park",
    "coordinates":"-93.309841, 36.040131"
    }
  },
  {
    "type": "Feature",
    "geometry": {
       "type": "Point",
       "coordinates":  [ -109.977608,38.182339 ]
    },
    "properties": {
    "Name":"Canyonlands National Park",
    "Year":2015,
    "Type":"Park",
    "coordinates":"-109.977608, 38.182339"
    }
  },
  {
    "type": "Feature",
    "geometry": {
       "type": "Point",
       "coordinates":  [ -77.3769,34.777 ]
    },
    "properties": {
    "Name":"Cape Lookout National Seashore",
    "Year":2021,
    "Type":"Park",
    "coordinates":"-77.3769, 34.777"
    }
  },
  {
    "type": "Feature",
    "geometry": {
       "type": "Point",
       "coordinates":  [ -111.250305,38.386881 ]
    },
    "properties": {
    "Name":"Capitol Reef National Park",
    "Year":2015,
    "Type":"Park",
    "coordinates":"-111.250305, 38.386881"
    }
  },
  {
    "type": "Feature",
    "geometry": {
       "type": "Point",
       "coordinates":  [ -103.973041,36.780769 ]
    },
    "properties": {
    "Name":"Capulin Volcano National Monument",
    "Year":2016,
    "Type":"Park",
    "coordinates":"-103.973041, 36.780769"
    }
  },
  {
    "type": "Feature",
    "geometry": {
       "type": "Point",
       "coordinates":  [ -112.845686,37.636596 ]
    },
    "properties": {
    "Name":"Cedar Breaks National Monument",
    "Year":2017,
    "Type":"Park",
    "coordinates":"-112.845686, 37.636596"
    }
  },
  {
    "type": "Feature",
    "geometry": {
       "type": "Point",
       "coordinates":  [ -114.91222,43.96239 ]
    },
    "properties": {
    "Name":"Central Idaho",
    "Year":2017,
    "Type":"Reserve",
    "coordinates":"-114.91222, 43.96239"
    }
  },
  {
    "type": "Feature",
    "geometry": {
       "type": "Point",
       "coordinates":  [ -107.958326,36.038316 ]
    },
    "properties": {
    "Name":"Chaco Culture National Historical Park",
    "Year":2013,
    "Type":"Park",
    "coordinates":"-107.958326, 36.038316"
    }
  },
  {
    "type": "Feature",
    "geometry": {
       "type": "Point",
       "coordinates":  [ -77.822201,41.662748 ]
    },
    "properties": {
    "Name":"Cherry Springs State Park",
    "Year":2008,
    "Type":"Park",
    "coordinates":"-77.822201, 41.662748"
    }
  },
  {
    "type": "Feature",
    "geometry": {
       "type": "Point",
       "coordinates":  [ -109.33962,32.011318 ]
    },
    "properties": {
    "Name":"Chiricahua National Monument",
    "Year":2021,
    "Type":"Park",
    "coordinates":"-109.33962, 32.011318"
    }
  },
  {
    "type": "Feature",
    "geometry": {
       "type": "Point",
       "coordinates":  [ -103.306053,36.578358 ]
    },
    "properties": {
    "Name":"Clayton Lake State Park",
    "Year":2010,
    "Type":"Park",
    "coordinates":"-103.306053, 36.578358"
    }
  },
  {
    "type": "Feature",
    "geometry": {
       "type": "Point",
       "coordinates":  [ -99.751195,34.114159 ]
    },
    "properties": {
    "Name":"Copper Breaks State Park",
    "Year":2014,
    "Type":"Park",
    "coordinates":"-99.751195, 34.114159"
    }
  },
  {
    "type": "Feature",
    "geometry": {
       "type": "Point",
       "coordinates":  [ -108.9225,33.47645 ]
    },
    "properties": {
    "Name":"Cosmic Campground",
    "Year":2016,
    "Type":"Sanctuary",
    "coordinates":"-108.9225, 33.47645"
    }
  },
  {
    "type": "Feature",
    "geometry": {
       "type": "Point",
       "coordinates":  [ -112.009879,34.739188 ]
    },
    "properties": {
    "Name":"Cottonwood, AZ",
    "Year":2019,
    "Type":"Community",
    "coordinates":"-112.009879, 34.739188"
    }
  },
  {
    "type": "Feature",
    "geometry": {
       "type": "Point",
       "coordinates":  [ -113.492506,43.141436 ]
    },
    "properties": {
    "Name":"Craters Of The Moon National Monument",
    "Year":2017,
    "Type":"Park",
    "coordinates":"-113.492506, 43.141436"
    }
  },
  {
    "type": "Feature",
    "geometry": {
       "type": "Point",
       "coordinates":  [ -105.697597,37.995247 ]
    },
    "properties": {
    "Name":"Crestone, CO",
    "Year":2021,
    "Type":"Community",
    "coordinates":"-105.697597, 37.995247"
    }
  },
  {
    "type": "Feature",
    "geometry": {
       "type": "Point",
       "coordinates":  [ -107.366401,38.45028 ]
    },
    "properties": {
    "Name":"Curecanti National Recreation Area",
    "Year":2021,
    "Type":"Park",
    "coordinates":"-107.366401, 38.45028"
    }
  },
  {
    "type": "Feature",
    "geometry": {
       "type": "Point",
       "coordinates":  [ -109.740305,38.470828 ]
    },
    "properties": {
    "Name":"Dead Horse Point State Park",
    "Year":2016,
    "Type":"Park",
    "coordinates":"-109.740305, 38.470828"
    }
  },
  {
    "type": "Feature",
    "geometry": {
       "type": "Point",
       "coordinates":  [ -117.102294,36.491439 ]
    },
    "properties": {
    "Name":"Death Valley National Park",
    "Year":2013,
    "Type":"Park",
    "coordinates":"-117.102294, 36.491439"
    }
  },
  {
    "type": "Feature",
    "geometry": {
       "type": "Point",
       "coordinates":  [ -100.943435,29.935485 ]
    },
    "properties": {
    "Name":"Devils River State Natural Area",
    "Year":2019,
    "Type":"Sanctuary",
    "coordinates":"-100.943435, 29.935485"
    }
  },
  {
    "type": "Feature",
    "geometry": {
       "type": "Point",
       "coordinates":  [ -109.301355,40.440548 ]
    },
    "properties": {
    "Name":"Dinosaur National Monument",
    "Year":2019,
    "Type":"Park",
    "coordinates":"-109.301355, 40.440548"
    }
  },
  {
    "type": "Feature",
    "geometry": {
       "type": "Point",
       "coordinates":  [ -85.847572,41.905173 ]
    },
    "properties": {
    "Name":"Dr. T.K. Lawless County Park",
    "Year":2019,
    "Type":"Park",
    "coordinates":"-85.847572, 41.905173"
    }
  },
  {
    "type": "Feature",
    "geometry": {
       "type": "Point",
       "coordinates":  [ -98.0875,30.18986 ]
    },
    "properties": {
    "Name":"Dripping Springs, TX",
    "Year":2014,
    "Type":"Community",
    "coordinates":"-98.0875, 30.18986"
    }
  },
  {
    "type": "Feature",
    "geometry": {
       "type": "Point",
       "coordinates":  [ -111.586879,40.901986 ]
    },
    "properties": {
    "Name":"East Canyon State Park",
    "Year":2020,
    "Type":"Park",
    "coordinates":"-111.586879, 40.901986"
    }
  },
  {
    "type": "Feature",
    "geometry": {
       "type": "Point",
       "coordinates":  [ -108.345232,35.04008 ]
    },
    "properties": {
    "Name":"El Morro National Monument",
    "Year":2019,
    "Type":"Park",
    "coordinates":"-108.345232, 35.04008"
    }
  },
  {
    "type": "Feature",
    "geometry": {
       "type": "Point",
       "coordinates":  [ -98.823221,30.504635 ]
    },
    "properties": {
    "Name":"Enchanted Rock State Natural Area",
    "Year":2014,
    "Type":"Park",
    "coordinates":"-98.823221, 30.504635"
    }
  },
  {
    "type": "Feature",
    "geometry": {
       "type": "Point",
       "coordinates":  [ -111.63111,35.19572 ]
    },
    "properties": {
    "Name":"Flagstaff, AZ",
    "Year":2001,
    "Type":"Community",
    "coordinates":"-111.63111, 35.19572"
    }
  },
  {
    "type": "Feature",
    "geometry": {
       "type": "Point",
       "coordinates":  [ -105.285421,38.913611 ]
    },
    "properties": {
    "Name":"Florissant Fossil Beds National Monument",
    "Year":2021,
    "Type":"Park",
    "coordinates":"-105.285421, 38.913611"
    }
  },
  {
    "type": "Feature",
    "geometry": {
       "type": "Point",
       "coordinates":  [ -105.012118,35.907451 ]
    },
    "properties": {
    "Name":"Fort Union National Monument",
    "Year":2019,
    "Type":"Park",
    "coordinates":"-105.012118, 35.907451"
    }
  },
  {
    "type": "Feature",
    "geometry": {
       "type": "Point",
       "coordinates":  [ -111.22889,33.60565 ]
    },
    "properties": {
    "Name":"Fountain Hills, AZ",
    "Year":2018,
    "Type":"Community",
    "coordinates":"-111.22889, 33.60565"
    }
  },
  {
    "type": "Feature",
    "geometry": {
       "type": "Point",
       "coordinates":  [ -98.872,30.2752 ]
    },
    "properties": {
    "Name":"Fredericksburg, TX",
    "Year":2020,
    "Type":"Community",
    "coordinates":"-98.872, 30.2752"
    }
  },
  {
    "type": "Feature",
    "geometry": {
       "type": "Point",
       "coordinates":  [ -112.342372,38.577549 ]
    },
    "properties": {
    "Name":"Fremont Indian State Park",
    "Year":2021,
    "Type":"Park",
    "coordinates":"-112.342372, 38.577549"
    }
  },
  {
    "type": "Feature",
    "geometry": {
       "type": "Point",
       "coordinates":  [ -81.340347,40.659965 ]
    },
    "properties": {
    "Name":"Fry Family Park",
    "Year":2021,
    "Type":"Urban Night Sky Place",
    "coordinates":"-81.340347, 40.659965"
    }
  },
  {
    "type": "Feature",
    "geometry": {
       "type": "Point",
       "coordinates":  [ -81.082051,41.58509 ]
    },
    "properties": {
    "Name":"Geauga Observatory Park",
    "Year":2011,
    "Type":"Park",
    "coordinates":"-81.082051, 41.58509"
    }
  },
  {
    "type": "Feature",
    "geometry": {
       "type": "Point",
       "coordinates":  [ -113.760885,48.617486 ]
    },
    "properties": {
    "Name":"Waterton-Glacier International Peace Park",
    "Year":2017,
    "Type":"Park",
    "coordinates":"-113.760885, 48.617486"
    }
  },
  {
    "type": "Feature",
    "geometry": {
       "type": "Point",
       "coordinates":  [ -110.709609,38.56679 ]
    },
    "properties": {
    "Name":"Goblin Valley State Park",
    "Year":2016,
    "Type":"Park",
    "coordinates":"-110.709609, 38.56679"
    }
  },
  {
    "type": "Feature",
    "geometry": {
       "type": "Point",
       "coordinates":  [ -109.907,37.1951 ]
    },
    "properties": {
    "Name":"Goosenecks State Park",
    "Year":2021,
    "Type":"Park",
    "coordinates":"-109.907, 37.1951"
    }
  },
  {
    "type": "Feature",
    "geometry": {
       "type": "Point",
       "coordinates":  [ -112.131958,36.233197 ]
    },
    "properties": {
    "Name":"Grand Canyon National Park",
    "Year":2016,
    "Type":"Park",
    "coordinates":"-112.131958, 36.233197"
    }
  },
  {
    "type": "Feature",
    "geometry": {
       "type": "Point",
       "coordinates":  [ -113.615193,36.296741 ]
    },
    "properties": {
    "Name":"Grand Canyon-Parashant National Monument",
    "Year":2014,
    "Type":"Park",
    "coordinates":"-113.615193, 36.296741"
    }
  },
  {
    "type": "Feature",
    "geometry": {
       "type": "Point",
       "coordinates":  [ -114.234946,38.944156 ]
    },
    "properties": {
    "Name":"Great Basin National Park",
    "Year":2016,
    "Type":"Park",
    "coordinates":"-114.234946, 38.944156"
    }
  },
  {
    "type": "Feature",
    "geometry": {
       "type": "Point",
       "coordinates":  [ -105.497589,37.778313 ]
    },
    "properties": {
    "Name":"Great Sand Dunes National Park and Preserve",
    "Year":2019,
    "Type":"Park",
    "coordinates":"-105.497589, 37.778313"
    }
  },
  {
    "type": "Feature",
    "geometry": {
       "type": "Point",
       "coordinates":  [ -104.024777,30.679456 ]
    },
    "properties": {
    "Name":"Greater Big Bend International Dark Sky Reserve",
    "Year":2022,
    "Type":"Reserve",
    "coordinates":"-104.024777, 30.679456"
    }
  },
  {
    "type": "Feature",
    "geometry": {
       "type": "Point",
       "coordinates":  [ -81.145,28.18812 ]
    },
    "properties": {
    "Name":"Harmony, FL",
    "Year":2009,
    "Type":"Community",
    "coordinates":"-81.145, 28.18812"
    }
  },
  {
    "type": "Feature",
    "geometry": {
       "type": "Point",
       "coordinates":  [ -88.048546,42.219835 ]
    },
    "properties": {
    "Name":"Hawthorn Woods, IL",
    "Year":2020,
    "Type":"Community",
    "coordinates":"-88.048546, 42.219835"
    }
  },
  {
    "type": "Feature",
    "geometry": {
       "type": "Point",
       "coordinates":  [ -84.783103,45.775575 ]
    },
    "properties": {
    "Name":"Headlands",
    "Year":2011,
    "Type":"Park",
    "coordinates":"-84.783103, 45.775575"
    }
  },
  {
    "type": "Feature",
    "geometry": {
       "type": "Point",
       "coordinates":  [ -110.855,39.6841 ]
    },
    "properties": {
    "Name":"Helper, UT",
    "Year":2020,
    "Type":"Community",
    "coordinates":"-110.855, 39.6841"
    }
  },
  {
    "type": "Feature",
    "geometry": {
       "type": "Point",
       "coordinates":  [ -87.94139,41.62145 ]
    },
    "properties": {
    "Name":"Homer Glen, IL",
    "Year":2011,
    "Type":"Community",
    "coordinates":"-87.94139, 41.62145"
    }
  },
  {
    "type": "Feature",
    "geometry": {
       "type": "Point",
       "coordinates":  [ -98.37222,30.53942 ]
    },
    "properties": {
    "Name":"Horseshoe Bay, TX",
    "Year":2015,
    "Type":"Community",
    "coordinates":"-98.37222, 30.53942"
    }
  },
  {
    "type": "Feature",
    "geometry": {
       "type": "Point",
       "coordinates":  [ -109.072992,37.383545 ]
    },
    "properties": {
    "Name":"Hovenweep National Monument",
    "Year":2014,
    "Type":"Park",
    "coordinates":"-109.072992, 37.383545"
    }
  },
  {
    "type": "Feature",
    "geometry": {
       "type": "Point",
       "coordinates":  [ -104.091846,40.387202 ]
    },
    "properties": {
    "Name":"Jackson Lake State Park",
    "Year":2020,
    "Type":"Park",
    "coordinates":"-104.091846, 40.387202"
    }
  },
  {
    "type": "Feature",
    "geometry": {
       "type": "Point",
       "coordinates":  [ -78.808607,37.625647 ]
    },
    "properties": {
    "Name":"James River State Park",
    "Year":2019,
    "Type":"Park",
    "coordinates":"-78.808607, 37.625647"
    }
  },
  {
    "type": "Feature",
    "geometry": {
       "type": "Point",
       "coordinates":  [ -111.427,40.594 ]
    },
    "properties": {
    "Name":"Jordanelle State Park",
    "Year":2021,
    "Type":"Park",
    "coordinates":"-111.427, 40.594"
    }
  },
  {
    "type": "Feature",
    "geometry": {
       "type": "Point",
       "coordinates":  [ -115.831604,33.869275 ]
    },
    "properties": {
    "Name":"Joshua Tree National Park",
    "Year":2017,
    "Type":"Park",
    "coordinates":"-115.831604, 33.869275"
    }
  },
  {
    "type": "Feature",
    "geometry": {
       "type": "Point",
       "coordinates":  [ -116.589824,33.072648 ]
    },
    "properties": {
    "Name":"Julian, CA",
    "Year":2021,
    "Type":"Community",
    "coordinates":"-116.589824, 33.072648"
    }
  },
  {
    "type": "Feature",
    "geometry": {
       "type": "Point",
       "coordinates":  [ -112.67864,36.92135 ]
    },
    "properties": {
    "Name":"Kaibab Paiute Indian Reservation",
    "Year":2015,
    "Type":"Community",
    "coordinates":"-112.67864, 36.92135"
    }
  },
  {
    "type": "Feature",
    "geometry": {
       "type": "Point",
       "coordinates":  [ -110.350435,31.840461 ]
    },
    "properties": {
    "Name":"Kartchner Caverns State Park",
    "Year":2017,
    "Type":"Park",
    "coordinates":"-110.350435, 31.840461"
    }
  },
  {
    "type": "Feature",
    "geometry": {
       "type": "Point",
       "coordinates":  [ -68.732051,45.976192 ]
    },
    "properties": {
    "Name":"Katahdin Woods and Waters National Monument",
    "Year":2020,
    "Type":"Sanctuary",
    "coordinates":"-68.732051, 45.976192"
    }
  },
  {
    "type": "Feature",
    "geometry": {
       "type": "Point",
       "coordinates":  [ -114.85583,43.67754 ]
    },
    "properties": {
    "Name":"Ketchum, ID",
    "Year":2017,
    "Type":"Community",
    "coordinates":"-114.85583, 43.67754"
    }
  },
  {
    "type": "Feature",
    "geometry": {
       "type": "Point",
       "coordinates":  [ -81.072674,27.592451 ]
    },
    "properties": {
    "Name":"Kissimmee Prairie Preserve State Park",
    "Year":2016,
    "Type":"Park",
    "coordinates":"-81.072674, 27.592451"
    }
  },
  {
    "type": "Feature",
    "geometry": {
       "type": "Point",
       "coordinates":  [ -111.99,37.5181 ]
    },
    "properties": {
    "Name":"Kodachrome Basin State Park",
    "Year":2021,
    "Type":"Park",
    "coordinates":"-111.99, 37.5181"
    }
  },
  {
    "type": "Feature",
    "geometry": {
       "type": "Point",
       "coordinates":  [ -96.9695,33.1426 ]
    },
    "properties": {
    "Name":"Lakewood Village, TX",
    "Year":2019,
    "Type":"Community",
    "coordinates":"-96.9695, 33.1426"
    }
  },
  {
    "type": "Feature",
    "geometry": {
       "type": "Point",
       "coordinates":  [ -98.606043,30.243271 ]
    },
    "properties": {
    "Name":"Lyndon B Johnson National Historical Park",
    "Year":2021,
    "Type":"Park",
    "coordinates":"-98.606043, 30.243271"
    }
  },
  {
    "type": "Feature",
    "geometry": {
       "type": "Point",
       "coordinates":  [ -86.100363,37.185989 ]
    },
    "properties": {
    "Name":"Mammoth Cave National Park",
    "Year":2021,
    "Type":"Park",
    "coordinates":"-86.100363, 37.185989"
    }
  },
  {
    "type": "Feature",
    "geometry": {
       "type": "Point",
       "coordinates":  [ -119.684207,41.700787 ]
    },
    "properties": {
    "Name":"Massacre Rim Wilderness Study Area",
    "Year":2019,
    "Type":"Sanctuary",
    "coordinates":"-119.684207, 41.700787"
    }
  },
  {
    "type": "Feature",
    "geometry": {
       "type": "Point",
       "coordinates":  [ -82.18417,35.92797 ]
    },
    "properties": {
    "Name":"Mayland Earth to Sky Park & Bare Dark Sky Observatory",
    "Year":2014,
    "Type":"Park",
    "coordinates":"-82.18417, 35.92797"
    }
  },
  {
    "type": "Feature",
    "geometry": {
       "type": "Point",
       "coordinates":  [ -104.45839,46.0455 ]
    },
    "properties": {
    "Name":"Medicine Rocks State Park",
    "Year":2020,
    "Type":"Sanctuary",
    "coordinates":"-104.45839, 46.0455"
    }
  },
  {
    "type": "Feature",
    "geometry": {
       "type": "Point",
       "coordinates":  [ -108.446509,37.240558 ]
    },
    "properties": {
    "Name":"Mesa Verde National Park",
    "Year":2021,
    "Type":"Park",
    "coordinates":"-108.446509, 37.240558"
    }
  },
  {
    "type": "Feature",
    "geometry": {
       "type": "Point",
       "coordinates":  [ -87.970324,40.383024 ]
    },
    "properties": {
    "Name":"Middle Fork River Forest Preserve",
    "Year":2018,
    "Type":"Park",
    "coordinates":"-87.970324, 40.383024"
    }
  },
  {
    "type": "Feature",
    "geometry": {
       "type": "Point",
       "coordinates":  [ -98.45167,30.33507 ]
    },
    "properties": {
    "Name":"Milton Reimers Ranch Park",
    "Year":2021,
    "Type":"Park",
    "coordinates":"-98.45167, 30.33507"
    }
  },
  {
    "type": "Feature",
    "geometry": {
       "type": "Point",
       "coordinates":  [ -71.1625,45.45543 ]
    },
    "properties": {
    "Name":"Mont-Megantic",
    "Year":2007,
    "Type":"Reserve",
    "coordinates":"-71.1625, 45.45543"
    }
  },
  {
    "type": "Feature",
    "geometry": {
       "type": "Point",
       "coordinates":  [ -79.543573,37.633539 ]
    },
    "properties": {
    "Name":"Natural Bridge State Park",
    "Year":2021,
    "Type":"Park",
    "coordinates":"-79.543573, 37.633539"
    }
  },
  {
    "type": "Feature",
    "geometry": {
       "type": "Point",
       "coordinates":  [ -110.011181,37.602595 ]
    },
    "properties": {
    "Name":"Natural Bridges National Monument",
    "Year":2007,
    "Type":"Park",
    "coordinates":"-110.011181, 37.602595"
    }
  },
  {
    "type": "Feature",
    "geometry": {
       "type": "Point",
       "coordinates":  [ -108.569,38.2183 ]
    },
    "properties": {
    "Name":"Naturita, CO",
    "Year":2021,
    "Type":"Community",
    "coordinates":"-108.569, 38.2183"
    }
  },
  {
    "type": "Feature",
    "geometry": {
       "type": "Point",
       "coordinates":  [ -86.986269,45.243152 ]
    },
    "properties": {
    "Name":"Newport State Park",
    "Year":2017,
    "Type":"Park",
    "coordinates":"-86.986269, 45.243152"
    }
  },
  {
    "type": "Feature",
    "geometry": {
       "type": "Point",
       "coordinates":  [ -111.906608,41.370495 ]
    },
    "properties": {
    "Name":"North Fork Park",
    "Year":2015,
    "Type":"Park",
    "coordinates":"-111.906608, 41.370495"
    }
  },
  {
    "type": "Feature",
    "geometry": {
       "type": "Point",
       "coordinates":  [ -108.292304,38.130546 ]
    },
    "properties": {
    "Name":"Norwood, CO",
    "Year":2019,
    "Type":"Community",
    "coordinates":"-108.292304, 38.130546"
    }
  },
  {
    "type": "Feature",
    "geometry": {
       "type": "Point",
       "coordinates":  [ -108.548,38.2694 ]
    },
    "properties": {
    "Name":"Nucla, CO",
    "Year":2021,
    "Type":"Community",
    "coordinates":"-108.548, 38.2694"
    }
  },
  {
    "type": "Feature",
    "geometry": {
       "type": "Point",
       "coordinates":  [ -84.850845,36.125674 ]
    },
    "properties": {
    "Name":"Obed Wild and Scenic River",
    "Year":2017,
    "Type":"Park",
    "coordinates":"-84.850845, 36.125674"
    }
  },
  {
    "type": "Feature",
    "geometry": {
       "type": "Point",
       "coordinates":  [ -110.727123,32.620104 ]
    },
    "properties": {
    "Name":"Oracle State Park",
    "Year":2014,
    "Type":"Park",
    "coordinates":"-110.727123, 32.620104"
    }
  },
  {
    "type": "Feature",
    "geometry": {
       "type": "Point",
       "coordinates":  [ -87.873473,41.707369 ]
    },
    "properties": {
    "Name":"Palos Preserves",
    "Year":2021,
    "Type":"Urban Night Sky Place",
    "coordinates":"-87.873473, 41.707369"
    }
  },
  {
    "type": "Feature",
    "geometry": {
       "type": "Point",
       "coordinates":  [ -109.707994,34.974477 ]
    },
    "properties": {
    "Name":"Petrified Forest National Park",
    "Year":2018,
    "Type":"Park",
    "coordinates":"-109.707994, 34.974477"
    }
  },
  {
    "type": "Feature",
    "geometry": {
       "type": "Point",
       "coordinates":  [ -84.825096,36.545225 ]
    },
    "properties": {
    "Name":"Pickett-Pogue",
    "Year":2015,
    "Type":"Park",
    "coordinates":"-84.825096, 36.545225"
    }
  },
  {
    "type": "Feature",
    "geometry": {
       "type": "Point",
       "coordinates":  [ -112.527,36.9455 ]
    },
    "properties": {
    "Name":"Pipe Springs National Monument",
    "Year":2021,
    "Type":"Park",
    "coordinates":"-112.527, 36.9455"
    }
  },
  {
    "type": "Feature",
    "geometry": {
       "type": "Point",
       "coordinates":  [ -82.87778,35.20326 ]
    },
    "properties": {
    "Name":"Pisgah Astronomical Research Institute",
    "Year":2020,
    "Type":"Park",
    "coordinates":"-82.87778, 35.20326"
    }
  },
  {
    "type": "Feature",
    "geometry": {
       "type": "Point",
       "coordinates":  [ -120.729331,44.134575 ]
    },
    "properties": {
    "Name":"Prineville Reservoir State Park",
    "Year":2021,
    "Type":"Park",
    "coordinates":"-120.729331, 44.134575"
    }
  },
  {
    "type": "Feature",
    "geometry": {
       "type": "Point",
       "coordinates":  [ -91.532241,48.428521 ]
    },
    "properties": {
    "Name":"Quetico Provincial Park",
    "Year":2021,
    "Type":"Park",
    "coordinates":"-91.532241, 48.428521"
    }
  },
  {
    "type": "Feature",
    "geometry": {
       "type": "Point",
       "coordinates":  [ -110.86583,37.07514 ]
    },
    "properties": {
    "Name":"Rainbow Bridge National Monument",
    "Year":2018,
    "Type":"Sanctuary",
    "coordinates":"-110.86583, 37.07514"
    }
  },
  {
    "type": "Feature",
    "geometry": {
       "type": "Point",
       "coordinates":  [ -78.147103,38.720505 ]
    },
    "properties": {
    "Name":"Rappahannock County Park",
    "Year":2019,
    "Type":"Park",
    "coordinates":"-78.147103, 38.720505"
    }
  },
  {
    "type": "Feature",
    "geometry": {
       "type": "Point",
       "coordinates":  [ -107.758879,38.151438 ]
    },
    "properties": {
    "Name":"Ridgway, CO",
    "Year":2020,
    "Type":"Community",
    "coordinates":"-107.758879, 38.151438"
    }
  },
  {
    "type": "Feature",
    "geometry": {
       "type": "Point",
       "coordinates":  [ -111.375,40.7544 ]
    },
    "properties": {
    "Name":"Rockport State Park",
    "Year":2021,
    "Type":"Park",
    "coordinates":"-111.375, 40.7544"
    }
  },
  {
    "type": "Feature",
    "geometry": {
       "type": "Point",
       "coordinates":  [ -106.295362,34.595652 ]
    },
    "properties": {
    "Name":"Salinas Pueblo Missions National Monument",
    "Year":2016,
    "Type":"Park",
    "coordinates":"-106.295362, 34.595652"
    }
  },
  {
    "type": "Feature",
    "geometry": {
       "type": "Point",
       "coordinates":  [ -111.78056,34.85978 ]
    },
    "properties": {
    "Name":"Sedona, AZ",
    "Year":2014,
    "Type":"Community",
    "coordinates":"-111.78056, 34.85978"
    }
  },
  {
    "type": "Feature",
    "geometry": {
       "type": "Point",
       "coordinates":  [ -77.968913,38.988703 ]
    },
    "properties": {
    "Name":"Sky Meadows State Park",
    "Year":2021,
    "Type":"Park",
    "coordinates":"-77.968913, 38.988703"
    }
  },
  {
    "type": "Feature",
    "geometry": {
       "type": "Point",
       "coordinates":  [ -107.26417,37.9879 ]
    },
    "properties": {
    "Name":"Slumgullion Center",
    "Year":2020,
    "Type":"Park",
    "coordinates":"-107.26417, 37.9879"
    }
  },
  {
    "type": "Feature",
    "geometry": {
       "type": "Point",
       "coordinates":  [ -99.800289,30.425179 ]
    },
    "properties": {
    "Name":"South Llano River State Park",
    "Year":2017,
    "Type":"Park",
    "coordinates":"-99.800289, 30.425179"
    }
  },
  {
    "type": "Feature",
    "geometry": {
       "type": "Point",
       "coordinates":  [ -90.392922,38.669773 ]
    },
    "properties": {
    "Name":"Stacy Park",
    "Year":2021,
    "Type":"Urban Night Sky Place",
    "coordinates":"-90.392922, 38.669773"
    }
  },
  {
    "type": "Feature",
    "geometry": {
       "type": "Point",
       "coordinates":  [ -78.667597,36.697582 ]
    },
    "properties": {
    "Name":"Staunton River State Park",
    "Year":2015,
    "Type":"Park",
    "coordinates":"-78.667597, 36.697582"
    }
  },
  {
    "type": "Feature",
    "geometry": {
       "type": "Point",
       "coordinates":  [ -109.531415,40.519648 ]
    },
    "properties": {
    "Name":"Steinaker State Park",
    "Year":2018,
    "Type":"Park",
    "coordinates":"-109.531415, 40.519648"
    }
  },
  {
    "type": "Feature",
    "geometry": {
       "type": "Point",
       "coordinates":  [ -82.364797,30.823219 ]
    },
    "properties": {
    "Name":"Stephen C. Foster State Park",
    "Year":2016,
    "Type":"Park",
    "coordinates":"-82.364797, 30.823219"
    }
  },
  {
    "type": "Feature",
    "geometry": {
       "type": "Point",
       "coordinates":  [ -111.51019,35.371756 ]
    },
    "properties": {
    "Name":"Sunset Crater Volcano National Monument",
    "Year":2016,
    "Type":"Park",
    "coordinates":"-111.51019, 35.371756"
    }
  },
  {
    "type": "Feature",
    "geometry": {
       "type": "Point",
       "coordinates":  [ -111.796,40.3769 ]
    },
    "properties": {
    "Name":"Timpanogos Cave National Monument",
    "Year":2020,
    "Type":"Urban Night Sky Place",
    "coordinates":"-111.796, 40.3769"
    }
  },
  {
    "type": "Feature",
    "geometry": {
       "type": "Point",
       "coordinates":  [ -111.113553,33.646925 ]
    },
    "properties": {
    "Name":"Tonto National Monument",
    "Year":2019,
    "Type":"Park",
    "coordinates":"-111.113553, 33.646925"
    }
  },
  {
    "type": "Feature",
    "geometry": {
       "type": "Point",
       "coordinates":  [ -107.794272,38.11139 ]
    },
    "properties": {
    "Name":"Top of the Pines Recreation Area",
    "Year":2021,
    "Type":"Park",
    "coordinates":"-107.794272, 38.11139"
    }
  },
  {
    "type": "Feature",
    "geometry": {
       "type": "Point",
       "coordinates":  [ -111.27361,38.29572 ]
    },
    "properties": {
    "Name":"Torrey, UT",
    "Year":2018,
    "Type":"Community",
    "coordinates":"-111.27361, 38.29572"
    }
  },
  {
    "type": "Feature",
    "geometry": {
       "type": "Point",
       "coordinates":  [ -111.047648,31.57274 ]
    },
    "properties": {
    "Name":"Tumacacori National Historical Park",
    "Year":2018,
    "Type":"Park",
    "coordinates":"-111.047648, 31.57274"
    }
  },
  {
    "type": "Feature",
    "geometry": {
       "type": "Point",
       "coordinates":  [ -99.27342,30.189068 ]
    },
    "properties": {
    "Name":"UBarU Camp and Retreat Center",
    "Year":2015,
    "Type":"Park",
    "coordinates":"-99.27342, 30.189068"
    }
  },
  {
    "type": "Feature",
    "geometry": {
       "type": "Point",
       "coordinates":  [ -106.67638,34.978561 ]
    },
    "properties": {
    "Name":"Valle de Oro National Wildlife Refuge",
    "Year":2019,
    "Type":"Urban Night Sky Place",
    "coordinates":"-106.67638, 34.978561"
    }
  },
  {
    "type": "Feature",
    "geometry": {
       "type": "Point",
       "coordinates":  [ -106.505585,35.921308 ]
    },
    "properties": {
    "Name":"Valles Caldera National Preserve",
    "Year":2021,
    "Type":"Park",
    "coordinates":"-106.505585, 35.921308"
    }
  },
  {
    "type": "Feature",
    "geometry": {
       "type": "Point",
       "coordinates":  [ -111.76306,34.77514 ]
    },
    "properties": {
    "Name":"Village of Oak Creek",
    "Year":2016,
    "Type":"Community",
    "coordinates":"-111.76306, 34.77514"
    }
  },
  {
    "type": "Feature",
    "geometry": {
       "type": "Point",
       "coordinates":  [ -111.511385,35.17354 ]
    },
    "properties": {
    "Name":"Walnut Canyon National Monument",
    "Year":2016,
    "Type":"Park",
    "coordinates":"-111.511385, 35.17354"
    }
  },
  {
    "type": "Feature",
    "geometry": {
       "type": "Point",
       "coordinates":  [ -80.127892,38.116768 ]
    },
    "properties": {
    "Name":"Watoga State Park",
    "Year":2021,
    "Type":"Park",
    "coordinates":"-80.127892, 38.116768"
    }
  },
  {
    "type": "Feature",
    "geometry": {
       "type": "Point",
       "coordinates":  [ -105.45861,38.13551 ]
    },
    "properties": {
    "Name":"Westcliffe & Silver Cliff, CO",
    "Year":2015,
    "Type":"Community",
    "coordinates":"-105.45861, 38.13551"
    }
  },
  {
    "type": "Feature",
    "geometry": {
       "type": "Point",
       "coordinates":  [ -98.091087,29.990185 ]
    },
    "properties": {
    "Name":"Wimberley Valley, TX",
    "Year":2018,
    "Type":"Community",
    "coordinates":"-98.091087, 29.990185"
    }
  },
  {
    "type": "Feature",
    "geometry": {
       "type": "Point",
       "coordinates":  [ -111.344032,35.564071 ]
    },
    "properties": {
    "Name":"Wupatki National Monument",
    "Year":2016,
    "Type":"Park",
    "coordinates":"-111.344032, 35.564071"
    }
  },
  {
    "type": "Feature",
    "geometry": {
       "type": "Point",
       "coordinates":  [ -112.987,37.2008 ]
    },
    "properties": {
    "Name":"Zion National Park",
    "Year":2021,
    "Type":"Park",
    "coordinates":"-112.987, 37.2008"
    }
  }
]
}